{"type":"FeatureCollection","features":[{"type":"Feature","geometry":{"type":"Point","coordinates":[-3.186729,55.945168]},"properties":{"location":"dragon.bottle.crisp","rbg-string":"#ffc000","marker-color":"#ffc000","marker-symbol":"danger"}},{"type":"Feature","geometry":{"type":"Point","coordinates":[-3.186296,55.945761]},"properties":{"location":"posts.kicked.universally","rbg-string":"#ff4000","marker-color":"#ff4000","marker-symbol":"danger"}},{"type":"Feature","geometry":{"type":"Point","coordinates":[-3.185814,55.94603]},"properties":{"location":"renew.slows.basket","rbg-string":"#ff0000","marker-color":"#ff0000","marker-symbol":"danger"}},{"type":"Feature","geometry":{"type":"Point","coordinates":[-3.185621,55.945761]},"properties":{"location":"shed.desire.muddy","rbg-string":"#ff4000","marker-color":"#ff4000","marker-symbol":"danger"}},{"type":"Feature","geometry":{"type":"Point","coordinates":[-3.184513,55.945302]},"properties":{"location":"settle.title.united","rbg-string":"#ff4000","marker-color":"#ff4000","marker-symbol":"danger"}},{"type":"Feature","geometry":{"type":"Point","coordinates":[-3.184899,55.944736]},"properties":{"location":"slide.leads.stores","rbg-string":"#000000","marker-color":"#000000","marker-symbol":"cross"}},{"type":"Feature","geometry":{"type":"Point","coordinates":[-3.185236,55.944575]},"properties":{"location":"acid.chair.butter","rbg-string":"#ff8000","marker-color":"#ff8000","marker-symbol":"danger"}},{"type":"Feature","geometry":{"type":"Point","coordinates":[-3.184947,55.943443]},"properties":{"location":"sentences.sings.modern","rbg-string":"#ffc000","marker-color":"#ffc000","marker-symbol":"danger"}},{"type":"Feature","geometry":{"type":"Point","coordinates":[-3.185525,55.943982]},"properties":{"location":"manliness.poem.cliff","rbg-string":"#ffc000","marker-color":"#ffc000","marker-symbol":"danger"}},{"type":"Feature","geometry":{"type":"Point","coordinates":[-3.186007,55.943901]},"properties":{"location":"teams.mild.played","rbg-string":"#ffc000","marker-color":"#ffc000","marker-symbol":"danger"}},{"type":"Feature","geometry":{"type":"Point","coordinates":[-3.186103,55.944251]},"properties":{"location":"organs.shape.fantastic","rbg-string":"#ff4000","marker-color":"#ff4000","marker-symbol":"danger"}},{"type":"Feature","geometry":{"type":"Point","coordinates":[-3.187018,55.943982]},"properties":{"location":"renew.ears.tend","rbg-string":"#80ff00","marker-color":"#80ff00","marker-symbol":"lighthouse"}},{"type":"Feature","geometry":{"type":"Point","coordinates":[-3.18697,55.942688]},"properties":{"location":"strut.river.surely","rbg-string":"#ff4000","marker-color":"#ff4000","marker-symbol":"danger"}},{"type":"Feature","geometry":{"type":"Point","coordinates":[-3.188608,55.943119]},"properties":{"location":"groups.ideas.script","rbg-string":"#40ff00","marker-color":"#40ff00","marker-symbol":"lighthouse"}},{"type":"Feature","geometry":{"type":"Point","coordinates":[-3.188704,55.943389]},"properties":{"location":"system.speak.guard","rbg-string":"#00ff00","marker-color":"#00ff00","marker-symbol":"lighthouse"}},{"type":"Feature","geometry":{"type":"Point","coordinates":[-3.189764,55.942661]},"properties":{"location":"hooked.shine.third","rbg-string":"#40ff00","marker-color":"#40ff00","marker-symbol":"lighthouse"}},{"type":"Feature","geometry":{"type":"Point","coordinates":[-3.189812,55.94409]},"properties":{"location":"cliff.asleep.wedge","rbg-string":"#40ff00","marker-color":"#40ff00","marker-symbol":"lighthouse"}},{"type":"Feature","geometry":{"type":"Point","coordinates":[-3.190294,55.943712]},"properties":{"location":"sculpture.shot.melon","rbg-string":"#40ff00","marker-color":"#40ff00","marker-symbol":"lighthouse"}},{"type":"Feature","geometry":{"type":"Point","coordinates":[-3.190727,55.943092]},"properties":{"location":"relate.chill.vest","rbg-string":"#00ff00","marker-color":"#00ff00","marker-symbol":"lighthouse"}},{"type":"Feature","geometry":{"type":"Point","coordinates":[-3.191161,55.943065]},"properties":{"location":"else.urban.museum","rbg-string":"#00ff00","marker-color":"#00ff00","marker-symbol":"lighthouse"}},{"type":"Feature","geometry":{"type":"Point","coordinates":[-3.191161,55.942742]},"properties":{"location":"along.spill.limp","rbg-string":"#00ff00","marker-color":"#00ff00","marker-symbol":"lighthouse"}},{"type":"Feature","geometry":{"type":"Point","coordinates":[-3.191161,55.943362]},"properties":{"location":"meal.feed.large","rbg-string":"#40ff00","marker-color":"#40ff00","marker-symbol":"lighthouse"}},{"type":"Feature","geometry":{"type":"Point","coordinates":[-3.191113,55.943901]},"properties":{"location":"spicy.bunch.shady","rbg-string":"#00ff00","marker-color":"#00ff00","marker-symbol":"lighthouse"}},{"type":"Feature","geometry":{"type":"Point","coordinates":[-3.191065,55.94444]},"properties":{"location":"paying.crowd.weep","rbg-string":"#40ff00","marker-color":"#40ff00","marker-symbol":"lighthouse"}},{"type":"Feature","geometry":{"type":"Point","coordinates":[-3.191161,55.945976]},"properties":{"location":"simple.rust.audio","rbg-string":"#000000","marker-color":"#000000","marker-symbol":"cross"}},{"type":"Feature","geometry":{"type":"Point","coordinates":[-3.188897,55.945707]},"properties":{"location":"stops.else.chats","rbg-string":"#ff0000","marker-color":"#ff0000","marker-symbol":"danger"}},{"type":"Feature","geometry":{"type":"Point","coordinates":[-3.188319,55.945518]},"properties":{"location":"skills.less.herb","rbg-string":"#000000","marker-color":"#000000","marker-symbol":"cross"}},{"type":"Feature","geometry":{"type":"Point","coordinates":[-3.189138,55.944197]},"properties":{"location":"spoon.invest.every","rbg-string":"#40ff00","marker-color":"#40ff00","marker-symbol":"lighthouse"}},{"type":"Feature","geometry":{"type":"Point","coordinates":[-3.188271,55.944063]},"properties":{"location":"rush.crown.link","rbg-string":"#00ff00","marker-color":"#00ff00","marker-symbol":"lighthouse"}},{"type":"Feature","geometry":{"type":"Point","coordinates":[-3.188126,55.943793]},"properties":{"location":"cubs.trucks.help","rbg-string":"#40ff00","marker-color":"#40ff00","marker-symbol":"lighthouse"}},{"type":"Feature","geometry":{"type":"Point","coordinates":[-3.187355,55.943604]},"properties":{"location":"shut.stands.media","rbg-string":"#80ff00","marker-color":"#80ff00","marker-symbol":"lighthouse"}},{"type":"Feature","geometry":{"type":"Point","coordinates":[-3.187307,55.944494]},"properties":{"location":"only.fairly.rift","rbg-string":"#ffc000","marker-color":"#ffc000","marker-symbol":"danger"}},{"type":"Feature","geometry":{"type":"Point","coordinates":[-3.187789,55.944386]},"properties":{"location":"thank.salsa.brain","rbg-string":"#40ff00","marker-color":"#40ff00","marker-symbol":"lighthouse"}},{"type":"Feature","geometry":{"type":"LineString","coordinates":[[-3.1878,55.9444],[-3.1875702,55.9445928],[-3.1872702,55.9445928],[-3.1869747,55.9446449],[-3.1867149,55.9447949],[-3.186433,55.9448975],[-3.1866628,55.9450904],[-3.1865128,55.9453502],[-3.1863628,55.94561],[-3.186133,55.9458028],[-3.1859032,55.9459957],[-3.1856734,55.9458028],[-3.1853915,55.9457002],[-3.1851096,55.9455976],[-3.1848498,55.9454476],[-3.1845679,55.945345],[-3.1847179,55.9450852],[-3.1848679,55.9448254],[-3.1851277,55.9446754],[-3.1850756,55.9443799],[-3.1850235,55.9440845],[-3.1849714,55.9437891],[-3.1849714,55.9434891],[-3.1852012,55.9436819],[-3.185431,55.9438747],[-3.185731,55.9438747],[-3.1860265,55.9439268],[-3.1860786,55.9442223],[-3.1863605,55.9441197],[-3.1866559,55.9440676],[-3.1869514,55.9440155],[-3.1869514,55.9437155],[-3.1869514,55.9434155],[-3.1869514,55.9431155],[-3.1869514,55.9428155],[-3.1872468,55.9428676],[-3.1875422,55.9429197],[-3.1878377,55.9429718],[-3.1881331,55.9430239],[-3.1884286,55.943076],[-3.1886214,55.9433058],[-3.1888812,55.9431558],[-3.189141,55.9430058],[-3.1894008,55.9428558],[-3.1897008,55.9428558],[-3.1898937,55.942626],[-3.1898937,55.942926],[-3.1898937,55.943226],[-3.1898416,55.9435214],[-3.1898416,55.9438214],[-3.1897895,55.9441168],[-3.1900193,55.943924],[-3.1902491,55.9437312],[-3.1904419,55.9435013],[-3.1905919,55.9432415],[-3.1907848,55.9430117],[-3.1910802,55.9430638],[-3.1911323,55.9427684],[-3.1911323,55.9430684],[-3.1911844,55.9433638],[-3.1911323,55.9436593],[-3.1911323,55.9439593],[-3.1910802,55.9442547],[-3.1910802,55.9445547],[-3.1910802,55.9448547],[-3.1910802,55.9451547],[-3.1911323,55.9454502],[-3.1911323,55.9457502],[-3.1911844,55.9460456],[-3.190889,55.9459935],[-3.1905935,55.9459414],[-3.1902981,55.9458893],[-3.1900026,55.9458372],[-3.1897072,55.9457851],[-3.1894117,55.945733],[-3.1891117,55.945733],[-3.1888163,55.9456809],[-3.1885344,55.9455783],[-3.1882525,55.9454757],[-3.1884025,55.9452159],[-3.1885953,55.9449861],[-3.1887453,55.9447263],[-3.1889382,55.9444965],[-3.1890882,55.9442367],[-3.1887927,55.9441846],[-3.1884973,55.9441325],[-3.1882154,55.9440299],[-3.1881128,55.943748],[-3.1878173,55.9436959],[-3.1875219,55.9436438],[-3.1874698,55.9439392],[-3.1873672,55.9442211],[-3.1873151,55.9445166],[-3.187597,55.944414],[-3.187897,55.944414]]},"properties":{}}]}